City,Latitude,Longitude,Max Temperature,Humidity,Cloudiness,Wind Speed,Country,Date
Kumul,42.8,93.45,42.8,299.92,35,77,CN,1595522664
Flinders,-34.58,150.86,-34.58,283.71,86,89,AU,1595522665
Geraldton,-28.77,114.6,-28.77,281.15,87,0,AU,1595522666
Kidal,18.44,1.41,18.44,312.54,18,40,ML,1595522667
Vila Franca do Campo,37.72,-25.43,37.72,295.15,64,40,PT,1595522567
Djibouti,11.5,42.5,11.5,306.15,59,20,DJ,1595522669
Port Alfred,-33.59,26.89,-33.59,290.79,53,0,ZA,1595522670
Rikitea,-23.12,-134.97,-23.12,292.46,66,3,PF,1595522529
Khatanga,71.97,102.5,71.97,278.93,85,100,RU,1595522541
Upernavik,72.79,-56.15,72.79,281.05,73,78,GL,1595522674
Kavieng,-2.57,150.8,-2.57,301.22,77,45,PG,1595522675
Bila Krynytsya,50.64,29.47,50.64,295.93,40,91,UA,1595522676
Ketchikan,55.34,-131.65,55.34,286.15,93,90,US,1595522505
East London,-33.02,27.91,-33.02,292.6,55,0,ZA,1595522678
Thinadhoo,0.53,72.93,0.53,301.74,72,100,MV,1595522679
Kawhia,-38.07,174.82,-38.07,284.26,80,35,NZ,1595522681
Talnakh,69.49,88.4,69.49,283.15,71,85,RU,1595522682
Vaini,-21.2,-175.2,-21.2,293.15,100,75,TO,1595522683
Shache,38.42,77.24,38.42,298.68,19,79,CN,1595522684
Saint-Philippe,-21.36,55.77,-21.36,293.15,56,75,RE,1595522685
Ahipara,-35.17,173.17,-35.17,286.27,74,83,NZ,1595522582
Broken Hill,-31.95,141.43,-31.95,279.15,75,0,AU,1595522687
Anori,-3.77,-61.64,-3.77,308.33,41,47,BR,1595522688
Bambous Virieux,-20.34,57.76,-20.34,293.15,52,75,MU,1595522587
Albany,42.6,-73.97,42.6,300.93,85,62,US,1595522404
Nikolskoye,59.7,30.79,59.7,288.71,54,40,RU,1595522531
Hobart,-42.88,147.33,-42.88,278.15,80,97,AU,1595522418
Butaritari,3.07,172.79,3.07,301.19,77,2,KI,1595522694
São Félix do Xingu,-6.64,-51.99,-6.64,307.85,31,25,BR,1595522695
Praia da Vitória,38.73,-27.07,38.73,298.15,61,20,PT,1595522696
Provideniya,64.38,-173.3,64.38,283.12,66,44,RU,1595522602
Puerto Ayora,-0.74,-90.35,-0.74,297.15,73,20,EC,1595522699
Kununurra,-15.77,128.73,-15.77,287.15,35,0,AU,1595522700
Jiujiang,29.73,115.98,29.73,300.2,87,89,CN,1595522701
Chittarkonda,18.12,82.08,18.12,295.84,90,100,IN,1595522702
Avarua,-21.21,-159.78,-21.21,296.15,100,2,CK,1595522703
Kruisfontein,-34.0,24.73,-34.0,286.7,72,0,ZA,1595522705
Rāmānuj Ganj,23.8,83.7,23.8,298.82,78,100,IN,1595522706
Taltal,-25.4,-70.48,-25.4,288.09,50,0,CL,1595522707
Jalu,29.03,21.55,29.03,307.24,19,0,LY,1595522708
San Ignacio,17.16,-89.07,17.16,305.37,78,40,BZ,1595522709
Ushuaia,-54.8,-68.3,-54.8,277.15,60,90,AR,1595522550
Hobyo,5.35,48.53,5.35,298.74,70,83,SO,1595522711
Namatanai,-3.67,152.43,-3.67,299.57,82,45,PG,1595522583
Bud,39.45,-86.18,39.45,300.93,74,75,US,1595522714
Kaeo,-35.1,173.78,-35.1,282.59,3,82,NZ,1595522525
Praia,14.92,-23.51,14.92,303.15,66,40,CV,1595522716
Srednekolymsk,67.45,153.68,67.45,292.95,49,100,RU,1595522717
Chumikan,54.72,135.31,54.72,281.72,94,18,RU,1595522718
Matara,5.95,80.54,5.95,299.08,86,98,LK,1595522719
Olinda,-8.01,-34.86,-8.01,302.15,58,40,BR,1595522720
Mossamedes,-15.2,12.15,-15.2,295.44,62,0,AO,1595522582
Plettenberg Bay,-34.05,23.37,-34.05,290.99,59,0,ZA,1595522723
Udachny,66.42,112.4,66.42,285.15,81,90,RU,1595522724
Punta Arenas,-53.15,-70.92,-53.15,276.15,76,75,CL,1595522528
Qaanaaq,77.48,-69.36,77.48,282.62,51,0,GL,1595522522
Duminichi,53.93,35.11,53.93,287.1,77,27,RU,1595522727
Alofi,-19.06,-169.92,-19.06,296.15,100,73,NU,1595522539
Saint Paul Harbor,57.79,-152.41,57.79,286.15,71,1,US,1595522530
Hamilton,39.18,-84.53,39.18,300.93,88,90,US,1595522520
Arraial do Cabo,-22.97,-42.03,-22.97,301.15,58,50,BR,1595522732
Bethel,41.37,-73.41,41.37,302.04,78,1,US,1595522733
Tasiilaq,65.61,-37.64,65.61,279.15,81,75,GL,1595522734
Atuona,-9.8,-139.03,-9.8,298.88,74,6,PF,1595522525
Guerrero Negro,27.98,-114.06,27.98,294.4,66,91,MX,1595522578
Severo-Kuril'sk,50.68,156.12,50.68,283.04,91,99,RU,1595522612
Ossora,59.24,163.07,59.24,283.59,83,0,RU,1595522739
Thompson,55.74,-97.86,55.74,294.15,77,75,CA,1595522740
Jajce,44.34,17.27,44.34,297.15,69,20,BA,1595522741
Cidreira,-30.18,-50.21,-30.18,294.84,70,99,BR,1595522743
Tsaratanana,-16.78,47.65,-16.78,290.82,57,9,MG,1595522744
Constantine,36.37,6.61,36.37,307.15,26,20,DZ,1595522745
Kapaa,22.08,-159.32,22.08,298.15,83,75,US,1595522555
Mataura,-46.19,168.86,-46.19,277.04,83,92,NZ,1595522562
George Town,5.41,100.34,5.41,300.15,88,20,MY,1595522430
Chhāpar,27.82,74.4,27.82,307.69,45,88,IN,1595522749
Krasnyy Yar,46.53,48.35,46.53,304.15,23,56,RU,1595522751
Busselton,-33.65,115.33,-33.65,281.48,71,5,AU,1595522465
Mataram,-8.58,116.12,-8.58,296.15,88,75,ID,1595522720
Portland,45.52,-122.68,45.52,290.93,67,90,US,1595522642
Terme,41.21,36.97,41.21,299.15,65,40,TR,1595522756
Castro,-24.79,-50.01,-24.79,296.78,45,24,BR,1595522586
Barrow,71.29,-156.79,71.29,281.15,87,90,US,1595522533
Tiksi,71.69,128.87,71.69,287.73,81,87,RU,1595522550
Akdepe,42.06,59.38,42.06,302.15,45,33,TM,1595522760
Ndjolé,-0.18,10.76,-0.18,299.78,69,92,GA,1595522761
Yar-Sale,66.83,70.83,66.83,283.7,70,40,RU,1595522762
Quatre Cocos,-20.21,57.76,-20.21,293.15,52,75,MU,1595522764
Hasaki,35.73,140.83,35.73,295.15,100,75,JP,1595522765
Muros,42.78,-9.06,42.78,300.93,57,20,ES,1595522550
Sergeevka,53.88,67.42,53.88,290.34,88,98,KZ,1595522767
Hilo,19.73,-155.09,19.73,295.15,83,75,US,1595522484
Bāsudebpur,21.14,86.74,21.14,300.88,81,100,IN,1595522769
Necochea,-38.55,-58.74,-38.55,284.82,48,100,AR,1595522540
Chui,-33.7,-53.46,-33.7,292.3,94,100,UY,1595522772
Amapá,1.0,-52.0,1.0,301.34,76,55,BR,1595522773
Cabo San Lucas,22.89,-109.91,22.89,303.15,74,5,MX,1595522662
Mahébourg,-20.41,57.7,-20.41,293.15,52,75,MU,1595522607
Saskylakh,71.92,114.08,71.92,282.91,94,96,RU,1595522776
Hermanus,-34.42,19.23,-34.42,286.48,88,0,ZA,1595522777
Kawalu,-7.38,108.21,-7.38,294.83,89,99,ID,1595522778
Faanui,-16.48,-151.75,-16.48,298.57,78,6,PF,1595522629
Nanortalik,60.14,-45.24,60.14,281.73,91,100,GL,1595522780
Kirovsk,48.64,38.64,48.64,292.02,53,52,UA,1595522782
Touros,-5.2,-35.46,-5.2,302.15,58,75,BR,1595522783
Lompoc,34.64,-120.46,34.64,289.26,82,78,US,1595522784
Bandarbeyla,9.49,50.81,9.49,298.13,77,78,SO,1595522785
Amiens,49.9,2.3,49.9,297.59,36,100,FR,1595522786
Bredasdorp,-34.53,20.04,-34.53,287.15,87,0,ZA,1595522555
Kaitangata,-46.28,169.85,-46.28,276.48,77,55,NZ,1595522789
Coracora,-15.03,-73.78,-15.03,289.44,28,40,PE,1595522790
Vao,-22.67,167.48,-22.67,293.73,76,4,NC,1595522792
Saint George,37.1,-113.58,37.1,306.48,27,1,US,1595522718
Tilichiki,60.47,166.1,60.47,280.39,93,0,RU,1595522795
Kashgar,39.45,75.98,39.45,302.59,87,78,CN,1595522798
Khovd,48.01,91.64,48.01,292.76,55,67,MN,1595522577
Lüderitz,-26.65,15.16,-26.65,300.15,21,0,NA,1595522801
Jamestown,42.1,-79.24,42.1,299.82,83,90,US,1595522632
Conakry,9.54,-13.68,9.54,302.15,83,75,GN,1595522803
Bow Island,49.87,-111.37,49.87,299.15,57,75,CA,1595522805
Cape Town,-33.93,18.42,-33.93,290.37,77,0,ZA,1595522529
Hithadhoo,-0.6,73.08,-0.6,301.62,69,99,MV,1595522553
Mirny,62.54,113.96,62.54,287.15,100,1,RU,1595522808
Khanbari,27.37,87.2,27.37,296.9,76,99,NP,1595522812
Sitka,57.05,-135.33,57.05,285.15,93,90,US,1595522803
Faya,18.39,42.45,18.39,296.15,83,20,SA,1595522815
Neuquén,-38.95,-68.06,-38.95,278.15,86,75,AR,1595522816
Longyearbyen,78.22,15.64,78.22,283.15,76,90,SJ,1595522817
Los Llanos de Aridane,28.66,-17.92,28.66,298.15,65,20,ES,1595522818
Ciudad Guayana,8.35,-62.65,8.35,303.71,65,97,VE,1595522819
Dikson,73.51,80.55,73.51,278.57,87,21,RU,1595522820
Norman Wells,65.28,-126.83,65.28,284.15,93,75,CA,1595522527
São Filipe,14.9,-24.5,14.9,299.09,86,68,CV,1595522534
Coquimbo,-29.95,-71.34,-29.95,288.15,47,4,CL,1595522824
Caravelas,-17.71,-39.25,-17.71,298.19,63,20,BR,1595522669
Gravdal,68.12,13.5,68.12,283.15,93,75,NO,1595522826
Okha,53.57,142.95,53.57,279.89,94,7,RU,1595522827
Clyde River,70.47,-68.59,70.47,283.15,57,90,CA,1595522828
Mehrān,33.12,46.16,33.12,306.15,19,20,IR,1595522830
Tuktoyaktuk,69.45,-133.04,69.45,284.15,76,75,CA,1595522720
Codrington,-38.27,141.97,-38.27,277.23,87,90,AU,1595522832
Mgandu,-5.95,34.13,-5.95,293.08,41,4,TZ,1595522833
Klaksvík,62.23,-6.59,62.23,285.15,81,28,FO,1595522834
Bluff,-46.6,168.33,-46.6,277.04,83,87,NZ,1595522835
Honningsvåg,70.98,25.97,70.98,283.15,93,90,NO,1595522836
Katsuura,35.13,140.3,35.13,295.93,91,100,JP,1595522703
Chenghai,23.46,116.77,23.46,302.15,83,37,CN,1595522839
Arlit,18.74,7.39,18.74,311.15,19,48,NE,1595522843
Poplar Bluff,36.76,-90.39,36.76,302.15,74,1,US,1595522844
Trincomalee,8.57,81.23,8.57,301.49,76,100,LK,1595522846
Carnarvon,-24.87,113.63,-24.87,290.15,100,0,AU,1595522551
Kokopo,-4.35,152.26,-4.35,298.37,81,23,PG,1595522848
Coos Bay,43.37,-124.22,43.37,289.82,100,90,US,1595522573
Nísia Floresta,-6.09,-35.21,-6.09,302.15,54,20,BR,1595522850
Fortuna,40.6,-124.16,40.6,287.04,100,90,US,1595522844
Bixby,35.94,-95.88,35.94,301.15,74,90,US,1595522642
Fare,-16.7,-151.02,-16.7,298.45,79,7,PF,1595522853
Hervey Bay,-25.3,152.85,-25.3,288.15,95,94,AU,1595522846
Pendências,-5.26,-36.72,-5.26,305.45,44,69,BR,1595522856
College,64.86,-147.8,64.86,285.15,81,75,US,1595522857
Areosa,41.72,-8.86,41.72,302.59,73,0,PT,1595522702
Iqaluit,63.75,-68.51,63.75,282.15,87,75,CA,1595522587
Kindia,10.06,-12.87,10.06,299.48,89,79,GN,1595522862
Thyborøn,56.7,8.21,56.7,288.15,62,100,DK,1595522863
Hondomachi-hondo,32.45,130.2,32.45,300.93,83,100,JP,1595522866
Nuuk,64.18,-51.72,64.18,284.15,81,75,GL,1595522868
Strathmore,51.05,-113.39,51.05,292.04,96,91,CA,1595522869
Oyama,36.3,139.8,36.3,298.71,94,75,JP,1595522820
New Norfolk,-42.78,147.06,-42.78,278.15,87,99,AU,1595522697
Mitsamiouli,-11.38,43.28,-11.38,298.15,57,20,KM,1595522874
Petatlán,17.52,-101.27,17.52,304.15,62,75,MX,1595522875
São Miguel do Araguaia,-13.28,-50.16,-13.28,306.92,21,0,BR,1595522817
Khuzhir,53.19,107.34,53.19,286.21,82,9,RU,1595522877
Hong Kong,22.29,114.16,22.29,303.15,74,12,HK,1595522494
Batagay-Alyta,67.8,130.41,67.8,287.83,69,7,RU,1595522880
Palmer,42.16,-72.33,42.16,303.15,66,75,US,1595522881
Mar del Plata,-38.0,-57.56,-38.0,286.48,100,90,AR,1595522279
Pokaran,26.92,71.92,26.92,310.17,36,35,IN,1595522883
‘Āhuimanu,21.44,-157.84,21.44,298.71,78,75,US,1595522884
Labuhan,-6.88,112.21,-6.88,298.09,82,91,ID,1595522886
Zyryanka,65.75,150.85,65.75,290.93,59,90,RU,1595522887
Emerald,-23.53,148.17,-23.53,288.15,93,90,AU,1595522890
Oskaloosa,41.3,-92.64,41.3,301.15,61,1,US,1595522891
Edendale,-29.65,30.31,-29.65,284.53,55,0,ZA,1595522893
Paamiut,61.99,-49.67,61.99,281.08,96,100,GL,1595522894
Yellowknife,62.46,-114.35,62.46,288.71,93,90,CA,1595522455
Greenville,35.61,-77.37,35.61,308.15,56,40,US,1595522896
Hualmay,-11.1,-77.61,-11.1,292.25,71,61,PE,1595522897
Poum,-20.23,164.02,-20.23,294.99,79,6,NC,1595522899
Ambovombe,-25.17,46.08,-25.17,290.35,70,13,MG,1595522900
Chālūs,36.66,51.42,36.66,298.15,88,90,IR,1595522901
São Gabriel da Cachoeira,-0.13,-67.09,-0.13,301.15,78,75,BR,1595522902
Kahului,20.89,-156.47,20.89,296.48,73,20,US,1595522904
Vardø,70.37,31.11,70.37,286.15,87,75,NO,1595522905
Ayagoz,47.97,80.44,47.97,292.58,37,0,KZ,1595522907
Sheridan,44.83,-106.92,44.83,304.15,25,20,US,1595522908
Flin Flon,54.77,-101.86,54.77,295.15,78,75,CA,1595522724
Taoudenni,22.68,-3.98,22.68,319.56,9,18,ML,1595522910
Darnah,32.77,22.64,32.77,299.23,70,0,LY,1595522912
Hillsborough,37.57,-122.38,37.57,291.48,72,40,US,1595522913
Mehamn,71.04,27.85,71.04,283.15,93,90,NO,1595522914
Baghdad,33.34,44.4,33.34,318.15,10,0,IQ,1595522678
Port Blair,11.67,92.75,11.67,301.32,74,78,IN,1595522916
Chokurdakh,70.63,147.92,70.63,290.78,72,38,RU,1595522850
Vestmannaeyjar,63.44,-20.27,63.44,285.15,81,75,IS,1595522919
Qandala,11.47,49.87,11.47,304.46,59,73,SO,1595522921
Iskateley,67.68,53.15,67.68,295.85,65,3,RU,1595522922
Aklavik,68.22,-135.01,68.22,285.15,62,75,CA,1595522923
Lagoa,39.05,-27.98,39.05,294.06,70,0,PT,1595522926
Cotonou,6.37,2.42,6.37,301.15,78,20,BJ,1595522928
Tongliao,43.61,122.27,43.61,298.54,49,0,CN,1595522930
Kasongo,-4.45,26.67,-4.45,302.69,30,40,CD,1595522933
Santa Cruz,30.42,-9.6,30.42,301.15,58,1,MA,1595522961
Alihe,50.57,123.72,50.57,293.03,74,72,CN,1595522964
Lebu,-37.62,-73.65,-37.62,282.68,62,46,CL,1595522965
Buena Vista,43.42,-83.9,43.42,297.04,78,90,US,1595522967
Mwense,-10.38,28.7,-10.38,292.63,33,0,ZM,1595522973
Vila,42.03,-8.16,42.03,305.37,51,0,PT,1595522975
Hutchinson,38.06,-97.93,38.06,304.82,66,1,US,1595522977
Westport,41.14,-73.36,41.14,301.48,74,1,US,1595522734
Lima,-12.04,-77.03,-12.04,289.15,82,75,PE,1595522450
Port Elizabeth,-33.92,25.57,-33.92,290.15,77,0,ZA,1595522844
Fairbanks,64.84,-147.72,64.84,285.37,93,90,US,1595522902
Arman',59.7,150.17,59.7,285.67,77,93,RU,1595522985
Yangi Marg`ilon,40.43,71.72,40.43,302.15,35,10,UZ,1595522527
San Quintín,30.48,-115.95,30.48,293.51,65,56,MX,1595522987
Kumluca,36.37,30.29,36.37,302.92,45,0,TR,1595522988
Lorengau,-2.02,147.27,-2.02,301.19,79,46,PG,1595522990
Kampot,10.62,104.18,10.62,299.15,88,40,KH,1595522993
Gazli,40.13,63.45,40.13,303.98,25,89,UZ,1595522994
Dutlwe,-23.98,23.9,-23.98,286.9,36,0,BW,1595522997
Kango,0.19,10.1,0.19,300.3,67,86,GA,1595522999
Dvinskoy,62.15,45.12,62.15,289.31,96,100,RU,1595523002
Lichuan,30.3,108.85,30.3,293.76,96,100,CN,1595523004
Lavrentiya,65.58,-171.0,65.58,285.01,57,100,RU,1595523006
Ploemeur,47.73,-3.43,47.73,299.26,41,53,FR,1595523007
Sampit,-2.53,112.95,-2.53,296.49,97,100,ID,1595523008
Chase,50.82,-119.69,50.82,293.15,73,44,CA,1595523010
Bandrele,-12.91,45.19,-12.91,298.15,61,40,YT,1595523011
Qasigiannguit,68.82,-51.19,68.82,286.15,43,75,GL,1595522798
Redmond,47.67,-122.12,47.67,290.37,82,99,US,1595523013
Souillac,-20.52,57.52,-20.52,293.15,52,75,MU,1595523015
Saint-Marc,19.11,-72.69,19.11,303.13,62,54,HT,1595523017
Pangai,-19.8,-174.35,-19.8,297.03,76,33,TO,1595523018
Gazojak,41.19,61.4,41.19,303.31,32,98,TM,1595523021
Pisco,-13.7,-76.22,-13.7,292.59,77,20,PE,1595523022
Enumclaw,47.2,-121.99,47.2,289.82,83,90,US,1595523024
Tessalit,20.2,1.01,20.2,313.86,15,52,ML,1595523026
Tornio,65.85,24.15,65.85,287.15,93,90,FI,1595523027
Kailua,21.4,-157.74,21.4,298.71,78,75,US,1595523028
Sobolevo,54.43,31.9,54.43,287.36,83,5,RU,1595523029
Bac Lieu,9.29,105.72,9.29,301.32,73,100,VN,1595523031
Båtsfjord,70.63,29.72,70.63,283.15,93,90,NO,1595523033
Makīnsk,52.63,70.42,52.63,291.1,66,100,KZ,1595523035
Leningradskiy,69.38,178.42,69.38,280.83,72,96,RU,1595523036
Beibei,29.83,106.43,29.83,303.15,79,96,CN,1595523037
Scottsboro,34.67,-86.03,34.67,303.15,74,1,US,1595522757
Chara,56.91,118.26,56.91,288.86,84,98,RU,1595523039
Bukama,-9.2,25.85,-9.2,298.5,27,2,CD,1595523040
Coyhaique,-45.58,-72.07,-45.58,269.15,79,90,CL,1595523042
Meulaboh,4.14,96.13,4.14,297.4,91,100,ID,1595523043
Vigrestad,58.57,5.7,58.57,288.15,89,100,NO,1595523044
Hyères,43.12,6.12,43.12,305.37,66,3,FR,1595523045
Dodge City,37.75,-100.02,37.75,302.59,69,1,US,1595523050
Ponta do Sol,32.67,-17.1,32.67,295.93,65,0,PT,1595523051
Esperance,-33.87,121.9,-33.87,282.15,81,40,AU,1595522537
Pemba,-12.97,40.52,-12.97,297.15,69,75,MZ,1595523053
Saint-Paul,-21.01,55.27,-21.01,292.15,55,20,RE,1595523054
Nuevitas,21.55,-77.26,21.55,303.15,70,75,CU,1595523055
Businga,3.33,20.88,3.33,296.69,89,56,CD,1595523057
Laas,46.62,10.7,46.62,295.15,37,75,IT,1595523058
Ubari,26.59,12.78,26.59,306.5,15,0,LY,1595523059
Barranco,9.52,-82.7,9.52,303.15,70,75,PA,1595523060
Wainwright,52.84,-110.86,52.84,293.47,82,50,CA,1595523061
Maridi,4.92,29.47,4.92,293.82,95,53,SS,1595523062
Makakilo City,21.35,-158.09,21.35,296.15,83,1,US,1595523064
Bahir Dar,11.59,37.39,11.59,289.58,93,100,ET,1595523065
Milledgeville,33.08,-83.23,33.08,307.04,55,75,US,1595523066
Tsiroanomandidy,-18.77,46.03,-18.77,289.1,44,0,MG,1595523068
Puerto El Triunfo,13.28,-88.55,13.28,305.15,94,46,SV,1595523069
Abalak,58.13,68.59,58.13,286.82,69,0,RU,1595523070
Althofen,46.88,14.47,46.88,299.15,50,20,AT,1595523071
Aguascalientes,21.88,-102.3,21.88,294.15,56,75,MX,1595522903
Sunrise Manor,36.21,-115.07,36.21,307.04,19,1,US,1595522951
Lalibela,12.03,39.03,12.03,289.42,84,92,ET,1595523075
Myitkyina,25.38,97.4,25.38,296.51,92,100,MM,1595523077
Beāwar,26.1,74.32,26.1,304.5,54,16,IN,1595522956
Hambantota,6.12,81.12,6.12,300.33,81,82,LK,1595523081
Cherskiy,68.75,161.3,68.75,290.45,65,29,RU,1595523082
Yumen,40.28,97.2,40.28,297.67,35,98,CN,1595523084
Nouakchott,18.09,-15.98,18.09,302.15,70,90,MR,1595523086
Sibu,2.3,111.82,2.3,297.15,94,40,MY,1595523087
Gigmoto,13.78,124.39,13.78,300.77,79,17,PH,1595523090
Smidovich,48.6,133.82,48.6,290.56,96,100,RU,1595523091
Dudinka,69.41,86.18,69.41,282.15,76,47,RU,1595523092
Petropavlovka,50.61,105.32,50.61,287.28,78,41,RU,1595523093
Oktyabr'skoye,43.06,44.74,43.06,300.15,47,92,RU,1595523094
Ust-Maya,60.42,134.53,60.42,286.36,82,0,RU,1595523096
Kamaishi,39.27,141.88,39.27,292.11,88,83,JP,1595523097
Dingle,11.0,122.67,11.0,298.18,85,89,PH,1595523098
Moose Factory,51.26,-80.61,51.26,296.15,56,1,CA,1595523102
Quelimane,-17.88,36.89,-17.88,292.41,83,63,MZ,1595522550
Cockburn Town,21.46,-71.14,21.46,303.15,66,40,TC,1595523104
Cam Ranh,11.92,109.16,11.92,298.15,94,75,VN,1595523106
Pincher Creek,49.48,-113.95,49.48,297.04,53,1,CA,1595523110
Isangel,-19.55,169.27,-19.55,295.66,84,83,VU,1595522531
Vestmanna,62.16,-7.17,62.16,285.15,81,78,FO,1595523112
Port Augusta,-32.5,137.77,-32.5,278.71,80,24,AU,1595523113
Katangli,51.71,143.23,51.71,282.86,92,98,RU,1595523114
Bara,10.37,10.73,10.37,301.06,71,97,NG,1595523115
Pangnirtung,66.15,-65.71,66.15,284.15,87,90,CA,1595523116
Tshela,-4.98,12.93,-4.98,299.76,54,9,CD,1595523120
Konëvo,62.12,39.32,62.12,287.44,95,100,RU,1595523011
Valdivia,-39.81,-73.25,-39.81,282.15,61,10,CL,1595522869
Kapiri Mposhi,-13.97,28.68,-13.97,287.45,50,1,ZM,1595523127
Mandera,3.94,41.87,3.94,302.85,40,35,KE,1595523128
Saint Anthony,45.02,-93.22,45.02,297.04,60,40,US,1595523130
Cravo Norte,6.3,-70.2,6.3,302.66,71,70,CO,1595523131
Tuy Hoa,13.08,109.3,13.08,298.81,85,100,VN,1595523132
Maceió,-9.67,-35.74,-9.67,301.15,65,40,BR,1595523133
Rengo,-34.42,-70.87,-34.42,283.15,61,75,CL,1595523134
Husavik,66.04,-17.34,66.04,284.15,71,75,IS,1595523135
Beatrice,40.27,-96.75,40.27,303.15,74,1,US,1595522960
Narsaq,60.92,-46.05,60.92,291.15,31,75,GL,1595523138
Awjilah,29.11,21.29,29.11,306.11,23,0,LY,1595523139
Margate,51.38,1.39,51.38,297.15,41,98,GB,1595522563
Nhulunbuy,-12.23,136.77,-12.23,296.15,88,75,AU,1595523141
Sādri,25.18,73.43,25.18,303.71,61,13,IN,1595523142
Buala,-8.14,159.59,-8.14,300.43,81,99,SB,1595523143
Koppies,-27.24,27.57,-27.24,283.49,36,0,ZA,1595523144
Bad Dürrenberg,51.3,12.07,51.3,297.15,36,55,DE,1595523146
Cariati,39.49,16.96,39.49,305.37,43,0,IT,1595523147
Zhangye,38.93,100.45,38.93,295.62,48,97,CN,1595523148
Galesong,-5.32,119.37,-5.32,296.15,78,20,ID,1595523149
Buchanan,5.88,-10.05,5.88,298.52,83,91,LR,1595523140
Baião,-2.79,-49.67,-2.79,307.38,36,11,BR,1595523152
Mayo,38.89,-76.51,38.89,304.82,66,1,US,1595523153
Skibbereen,51.55,-9.27,51.55,294.15,60,75,IE,1595523154
Sainte-Marie,-20.9,55.55,-20.9,292.15,55,20,RE,1595523155
Voh,-20.97,164.7,-20.97,291.07,88,2,NC,1595523156
Ribeira Grande,38.52,-28.7,38.52,296.15,69,20,PT,1595522632
Pronsk,54.1,39.61,54.1,287.09,82,14,RU,1595523158
São José da Coroa Grande,-8.9,-35.15,-8.9,299.25,70,62,BR,1595523125
Takoradze,4.88,-1.76,4.88,298.52,79,99,GH,1595523161
Adrar,20.5,-10.07,20.5,314.7,15,0,MR,1595523162
Kenora,49.82,-94.43,49.82,297.15,50,20,CA,1595523087
Shelburne,44.08,-80.2,44.08,297.04,64,75,CA,1595523164
Bequimão,-2.45,-44.78,-2.45,304.15,58,40,BR,1595523165
Ribeira do Pombal,-10.83,-38.54,-10.83,301.74,40,82,BR,1595523166
Andover,51.21,-1.48,51.21,294.15,60,75,GB,1595523168
Champerico,14.3,-91.92,14.3,303.15,70,20,GT,1595523169
Batagay,67.63,134.63,67.63,291.04,56,59,RU,1595523170
Abu Samrah,35.3,37.18,35.3,304.44,33,0,SY,1595523171
Arroio Grande,-32.24,-53.09,-32.24,298.15,61,100,BR,1595523172
Camacha,33.08,-16.33,33.08,295.15,64,75,PT,1595523173
Darhan,49.49,105.92,49.49,288.17,86,86,MN,1595523174
Nome,64.5,-165.41,64.5,280.15,87,90,US,1595523175
Bereda,43.27,-7.54,43.27,302.04,47,45,ES,1595523177
Anadyr,64.75,177.48,64.75,284.15,87,47,RU,1595523178
Ngunguru,-35.62,174.5,-35.62,282.59,3,93,NZ,1595523004
Ilulissat,69.22,-51.1,69.22,286.15,43,75,GL,1595522696
Kiryat Gat,31.61,34.76,31.61,302.59,60,0,IL,1595523062
Brigantine,39.41,-74.36,39.41,304.26,70,1,US,1595523182
Noumea,-22.28,166.46,-22.28,291.15,77,0,NC,1595522518
Bariloche,-41.15,-71.31,-41.15,270.15,73,20,AR,1595522885
Ambon City,-3.7,128.18,-3.7,298.71,15,25,ID,1595523186
Yulara,-25.24,130.99,-25.24,280.15,56,0,AU,1595523187
Maun,-19.98,23.42,-19.98,288.76,32,0,BW,1595523188
Bonavista,48.65,-53.11,48.65,291.51,63,18,CA,1595523190
Menongue,-14.66,17.69,-14.66,290.43,28,0,AO,1595523191
São João da Barra,-21.64,-41.05,-21.64,301.15,45,20,BR,1595522699
Tungor,53.38,142.96,53.38,278.69,97,7,RU,1595523193
Zaraza,9.35,-65.32,9.35,302.09,79,45,VE,1595523195
Juneau,58.3,-134.42,58.3,285.93,93,90,US,1595523007
San Patricio,19.22,-104.7,19.22,305.15,75,75,MX,1595523198
Tuatapere,-46.13,167.68,-46.13,277.04,83,90,NZ,1595523199
Bolivar,37.61,-93.41,37.61,303.71,64,9,US,1595523085
Kendal,54.33,-2.75,54.33,289.82,98,100,GB,1595523201
Novopetrovskoye,55.99,36.47,55.99,290.15,45,40,RU,1595523202
Alyangula,-13.85,136.42,-13.85,291.15,100,0,AU,1595523203
Jertih,5.73,102.49,5.73,301.15,78,20,MY,1595523205
Oranjestad,12.52,-70.03,12.52,304.15,66,75,AW,1595523066
Gold Coast,-28.0,153.43,-28.0,288.71,93,75,AU,1595523207
Ulladulla,-35.35,150.47,-35.35,281.15,100,74,AU,1595523209
Tulun,54.56,100.58,54.56,286.65,87,9,RU,1595523210
Andenes,69.31,16.12,69.31,283.15,93,75,NO,1595523211
Tukan,53.84,57.46,53.84,287.83,98,97,RU,1595523212
San Cristobal,7.77,-72.22,7.77,306.15,41,20,VE,1595523213
Aksarka,66.56,67.8,66.56,284.98,67,51,RU,1595523214
Marsá Maţrūḩ,31.35,27.25,31.35,300.15,69,0,EG,1595523216
Bubaque,11.28,-15.83,11.28,300.32,83,100,GW,1595523124
Pingliang,35.54,106.69,35.54,291.31,91,100,CN,1595523218
Abu Dhabi,24.47,54.37,24.47,308.15,67,0,AE,1595523028
Östersund,63.18,14.64,63.18,283.15,71,97,SE,1595523220
Río Gallegos,-51.62,-69.22,-51.62,272.15,80,84,AR,1595522859
La Santisima Trinidad,-14.83,-64.9,-14.83,304.15,55,20,BO,1595523222
Scarborough,54.28,-0.4,54.28,290.93,87,100,GB,1595522689
Alice Springs,-23.7,133.88,-23.7,277.15,64,0,AU,1595523225
Kohtla-Järve,59.4,27.27,59.4,287.85,69,40,EE,1595523226
Belmonte,-15.86,-38.88,-15.86,298.15,69,75,BR,1595523227
Zeya,53.75,127.27,53.75,289.14,93,40,RU,1595523228
Meadow Lake,34.8,-106.54,34.8,298.71,64,75,US,1595523229
Monroe,43.15,-77.68,43.15,300.37,69,75,US,1595523145
Dhidhdhoo,6.88,73.1,6.88,301.02,81,100,MV,1595523231
Pantelimon,44.45,26.2,44.45,302.59,51,52,RO,1595523233
Beringovskiy,63.05,179.32,63.05,281.82,83,70,RU,1595523234
Santiago de Cao,-7.96,-79.24,-7.96,291.34,75,64,PE,1595523235
Oytal,42.91,73.27,42.91,300.09,27,62,KZ,1595523236
Kendari,-3.94,122.5,-3.94,295.21,91,35,ID,1595523237
Deputatsky,69.3,139.9,69.3,291.14,57,78,RU,1595523238
Sinnamary,5.38,-52.95,5.38,301.06,80,60,GF,1595523245
Athmallik,20.72,84.53,20.72,299.93,79,100,IN,1595523247
Romodanovo,54.43,45.33,54.43,289.02,77,0,RU,1595523248
Pevek,69.7,170.31,69.7,282.12,73,0,RU,1595523249
Batemans Bay,-35.72,150.18,-35.72,280.37,97,80,AU,1595523250
Brownsville,25.9,-97.5,25.9,306.48,55,90,US,1595523187
Galle,6.04,80.22,6.04,299.65,84,100,LK,1595523124
Yārāda,17.65,83.27,17.65,301.15,83,90,IN,1595523253
Pacifica,37.61,-122.49,37.61,290.93,87,90,US,1595523065
Borovoy,55.43,86.08,55.43,286.15,93,0,RU,1595523256
Mananara,-16.17,49.77,-16.17,292.39,78,58,MG,1595522844
North Bend,43.41,-124.22,43.41,289.82,100,90,US,1595523258
Victor Harbor,-35.57,138.62,-35.57,283.71,84,78,AU,1595523259
Narasannapeta,18.42,84.05,18.42,299.03,85,100,IN,1595523265
Bengkulu,-3.8,102.27,-3.8,297.59,90,99,ID,1595523125
Kenai,60.55,-151.26,60.55,288.15,76,1,US,1595523267
Semiletka,55.36,54.62,55.36,288.97,97,100,RU,1595523268
Torbay,47.67,-52.73,47.67,298.15,47,75,CA,1595523270
Skellefteå,64.75,20.95,64.75,286.48,93,100,SE,1595523271
Zavitinsk,50.12,129.45,50.12,290.17,93,100,RU,1595523272
Utete,-7.99,38.76,-7.99,294.14,69,32,TZ,1595523273
Kathmandu,27.72,85.32,27.72,294.15,100,75,NP,1595522710
Kachug,53.96,105.88,53.96,285.95,83,1,RU,1595523275
Sovetskaya Gavan',48.97,140.29,48.97,285.94,96,100,RU,1595523277
Port Hedland,-20.32,118.57,-20.32,288.15,77,0,AU,1595523278
Stornoway,58.21,-6.39,58.21,289.26,72,92,GB,1595523279
Snåase,64.25,12.38,64.25,286.15,71,75,NO,1595523280
Sechura,-5.56,-80.82,-5.56,296.75,55,2,PE,1595523281
Fort Frances,48.6,-93.4,48.6,296.48,56,20,CA,1595523282
Pacific Grove,36.62,-121.92,36.62,288.15,82,90,US,1595522600
Provost,52.35,-110.27,52.35,296.77,69,68,CA,1595523285
Wahiawā,21.5,-158.02,21.5,295.93,100,1,US,1595523286
Copiapó,-27.37,-70.33,-27.37,287.15,41,3,CL,1595523287
Wattegama,6.8,81.48,6.8,299.15,76,78,LK,1595523288
Sabang,5.89,95.32,5.89,300.66,76,92,ID,1595523289
Ancud,-41.87,-73.82,-41.87,280.15,70,0,CL,1595522717
Broome,42.25,-75.83,42.25,299.26,73,40,US,1595523292
Bundaberg,-24.85,152.35,-24.85,288.71,93,90,AU,1595523293
Kingston,18.0,-76.79,18.0,304.15,66,75,JM,1595523004
Brae,60.4,-1.35,60.4,288.15,82,40,GB,1595523295
Saint-Augustin,51.23,-58.65,51.23,296.21,38,100,CA,1595523296
Bilibino,68.05,166.44,68.05,289.97,57,11,RU,1595522853
Mpika,-11.83,31.45,-11.83,286.77,57,0,ZM,1595523298
Kemijärvi,66.71,27.43,66.71,290.44,86,62,FI,1595523300
Biograd na Moru,43.94,15.45,43.94,302.15,48,20,HR,1595523301
Kokstad,-30.55,29.42,-30.55,281.44,51,0,ZA,1595523244
Rio Grande,-32.03,-52.1,-32.03,302.15,51,100,BR,1595523076
Le Port,-20.94,55.29,-20.94,292.15,55,20,RE,1595523304
Puerto Lempira,15.27,-83.77,15.27,303.74,65,85,HN,1595523305
Port Lincoln,-34.73,135.87,-34.73,284.02,53,39,AU,1595522520
Nerchinskiy Zavod,51.31,119.61,51.31,291.98,77,25,RU,1595523311
Whitefish,48.41,-114.34,48.41,298.15,53,20,US,1595523312
Northam,51.03,-4.22,51.03,290.37,96,100,GB,1595523313
Magway,20.15,94.92,20.15,299.6,79,87,MM,1595523315
Korla,41.76,86.15,41.76,299.82,74,32,CN,1595523316
Harlingen,26.19,-97.7,26.19,306.15,55,20,US,1595523042
Tazovsky,67.47,78.7,67.47,282.29,70,0,RU,1595523318
Sfântu Gheorghe,45.87,25.78,45.87,294.82,67,72,RO,1595523319
Sire,12.93,5.2,12.93,304.45,52,9,NG,1595523321
Mórrope,-6.54,-80.01,-6.54,293.15,68,20,PE,1595523322
Nizwá,22.93,57.53,22.93,303.63,51,99,OM,1595523209
Vysokogornyy,50.12,139.15,50.12,285.95,95,100,RU,1595523324
Tutóia,-2.76,-42.27,-2.76,302.58,51,1,BR,1595523325
Maiduguri,11.85,13.16,11.85,304.27,53,41,NG,1595523326
Nioro,13.35,-15.75,13.35,300.84,75,100,GM,1595523327
Ostrovnoy,68.05,39.51,68.05,293.07,70,26,RU,1595523329
Gamba,-2.65,10.0,-2.65,296.75,74,94,GA,1595523246
Zhigansk,66.77,123.37,66.77,287.53,81,42,RU,1595523331
Magistral'nyy,56.17,107.45,56.17,286.62,71,40,RU,1595523332
Bhabhua,25.05,83.62,25.05,302.18,75,97,IN,1595523333
Stokmarknes,68.56,14.91,68.56,285.15,87,75,NO,1595523334
Saldanha,-33.01,17.94,-33.01,297.15,44,0,ZA,1595523335
Salto,-31.38,-57.97,-31.38,286.15,100,90,UY,1595523051
Kamphaeng Phet,16.48,99.52,16.48,299.43,86,75,TH,1595523124
Kuching,1.55,110.33,1.55,297.15,100,40,MY,1595523339
Sharlyk,52.92,54.75,52.92,289.95,90,95,RU,1595523340
Koson,39.04,65.58,39.04,305.15,25,0,UZ,1595523341
Bida,9.08,6.02,9.08,301.4,77,100,NG,1595523342
Solnechnyy,50.72,136.63,50.72,287.44,92,82,RU,1595523343
Plast,54.37,60.81,54.37,290.02,86,100,RU,1595523345
Inírida,3.87,-67.92,3.87,300.27,89,73,CO,1595523346
Kisangani,0.52,25.2,0.52,303.15,66,75,CD,1595523349
Marsabit,2.33,37.99,2.33,296.06,54,95,KE,1595523350
Berlevåg,70.86,29.09,70.86,283.15,100,90,NO,1595523351
Jérémie,18.65,-74.12,18.65,302.99,66,99,HT,1595523352
Chapais,49.78,-74.85,49.78,295.15,56,40,CA,1595523353
Havøysund,71.0,24.66,71.0,283.15,93,90,NO,1595523354
La Ronge,55.1,-105.28,55.1,294.15,88,75,CA,1595523355
Jishu,44.32,126.8,44.32,294.21,67,11,CN,1595523357
Turaif,31.67,38.66,31.67,312.15,17,0,SA,1595523276
Balkanabat,39.51,54.37,39.51,305.89,29,3,TM,1595523359
Nautla,20.22,-96.78,20.22,305.31,55,0,MX,1595523360
Dzheguta,43.97,42.04,43.97,289.64,84,77,RU,1595523361
Predivinsk,57.07,93.44,57.07,282.43,77,2,RU,1595523362
Turukhansk,65.82,87.98,65.82,283.48,81,93,RU,1595523363
Kloulklubed,7.04,134.26,7.04,298.15,94,40,PW,1595523364
Olafsvik,64.89,-23.71,64.89,282.92,68,2,IS,1595523366
Boa Viagem,-5.13,-39.73,-5.13,305.19,37,64,BR,1595523367
Chaman,30.92,66.45,30.92,299.79,16,0,PK,1595523368
Senneterre,48.38,-77.23,48.38,295.15,60,75,CA,1595523369
Bilma,18.69,12.92,18.69,312.9,8,39,NE,1595523371
Sesto Calende,45.73,8.63,45.73,304.26,43,6,IT,1595523373
Kalmunai,7.42,81.82,7.42,300.04,80,100,LK,1595523374
Port Hardy,50.7,-127.42,50.7,288.15,77,90,CA,1595522842
Rørvik,64.86,11.24,64.86,286.15,71,40,NO,1595523376
Trelew,-43.25,-65.31,-43.25,276.79,76,100,AR,1595523377
Chabahar,25.29,60.64,25.29,302.41,81,0,IR,1595523382
Berezovyy,51.67,135.7,51.67,288.55,84,100,RU,1595523383
San Miguel de Tucumán,-26.82,-65.22,-26.82,284.15,62,90,AR,1595523099
Comodoro Rivadavia,-45.87,-67.5,-45.87,277.15,64,0,AR,1595523262
Henties Bay,-22.12,14.28,-22.12,294.82,54,0,NA,1595523387
Aykhal,66.0,111.5,66.0,285.15,81,90,RU,1595523388
Nueve de Julio,-35.44,-60.88,-35.44,283.15,92,100,AR,1595522633
Lata,40.16,-8.33,40.16,302.59,60,0,PT,1595523390
Kudahuvadhoo,2.67,72.89,2.67,301.45,77,100,MV,1595523391
Pemangkat,1.17,108.97,1.17,298.45,84,91,ID,1595523393
Prince Rupert,54.32,-130.32,54.32,286.15,93,90,CA,1595523210
Gannan,47.91,123.5,47.91,295.8,58,48,CN,1595523396
Klyuchi,52.27,79.17,52.27,291.21,64,30,RU,1595523399
Turbat,26.0,63.04,26.0,303.87,60,34,PK,1595523400
Mattru,7.62,-11.83,7.62,297.6,93,100,SL,1595523401
Bānka,24.88,86.92,24.88,302.71,74,99,IN,1595523124
Obo,5.4,26.49,5.4,294.38,91,98,CF,1595523404
Airai,-8.93,125.41,-8.93,284.79,71,85,TL,1595523405
San Rafael,-34.62,-68.33,-34.62,278.6,60,23,AR,1595523336
Pangoa,-12.12,-73.0,-12.12,302.82,49,13,PE,1595523407
Buraidah,26.33,43.98,26.33,315.15,16,20,SA,1595523408
Kimbe,-5.55,150.14,-5.55,297.39,89,71,PG,1595523409
Quryq,43.2,51.65,43.2,298.45,68,0,KZ,1595523410
Sola,-13.88,167.55,-13.88,299.86,84,85,VU,1595523412
Eilat,29.56,34.95,29.56,314.15,28,0,IL,1595523413
Mareeba,-17.0,145.43,-17.0,294.15,68,75,AU,1595523414
Buñol,39.42,-0.78,39.42,306.48,25,0,ES,1595523415
Tanout,14.97,8.89,14.97,309.26,28,65,NE,1595523416
Severiano Melo,-5.78,-37.96,-5.78,306.75,32,61,BR,1595523417
Novoselitskoye,44.75,43.44,44.75,302.15,26,17,RU,1595523418
Chernyshevskiy,63.01,112.47,63.01,286.42,90,37,RU,1595523420
Waingapu,-9.66,120.26,-9.66,295.39,80,99,ID,1595523421
Wabash,40.8,-85.82,40.8,300.93,67,7,US,1595523422
Udomlya,57.88,34.99,57.88,286.38,84,30,RU,1595523423
Lashio,22.93,97.75,22.93,293.63,98,100,MM,1595523424
Tabou,4.42,-7.35,4.42,298.42,81,53,CI,1595523425
Songea,-10.68,35.65,-10.68,291.15,59,20,TZ,1595523426
Santa Maria da Vitória,-13.39,-44.19,-13.39,304.13,25,87,BR,1595523427
Ocniţa,44.98,25.55,44.98,298.15,65,86,RO,1595523429
Newport,51.59,-3.0,51.59,291.48,96,100,GB,1595523466
Gizo Government Station,-8.1,156.84,-8.1,300.89,75,73,SB,1595523467
Klichka,50.45,118.0,50.45,292.15,72,46,RU,1595523468
Khandyga,62.67,135.6,62.67,286.76,76,8,RU,1595523469
Tevaitoa,-16.78,-151.5,-16.78,298.61,79,2,PF,1595523473
Jiuquan,39.74,98.52,39.74,296.29,39,95,CN,1595523474
San Ramon,37.78,-121.98,37.78,292.59,77,40,US,1595523398
Madang,-5.22,145.8,-5.22,298.16,88,18,PG,1595523476
Manakara,-22.13,48.02,-22.13,291.96,84,94,MG,1595523477
Richards Bay,-28.78,32.04,-28.78,291.08,69,0,ZA,1595523479
Tālcher,20.95,85.22,20.95,300.54,84,100,IN,1595523480
Harper,4.38,-7.72,4.38,298.63,79,65,LR,1595523481
Sørkjosen,69.8,20.93,69.8,282.15,100,75,NO,1595523482
Mumbai,19.01,72.85,19.01,302.15,89,75,IN,1595523483
Dzerzhinskoye,56.83,95.23,56.83,285.28,74,99,RU,1595523484
Auki,-8.77,160.7,-8.77,298.64,85,79,SB,1595523485
Acapulco de Juárez,16.86,-99.89,16.86,303.15,74,40,MX,1595523487
Dunda,-8.12,34.25,-8.12,293.12,42,2,TZ,1595523488
Svetlaya,46.54,138.33,46.54,287.49,90,88,RU,1595523490
Loa Janan,-0.58,117.09,-0.58,296.28,97,96,ID,1595523492
