City,Latitude,Longitude,Max Temperature,Humidity,Cloudiness,Wind Speed,Country,Date
Bredasdorp,-34.53,20.04,57.2,71,0,9.17,ZA,1595866549
Albany,42.6,-73.97,91.0,39,86,1.99,US,1595866252
Avarua,-21.21,-159.78,69.8,88,57,5.82,CK,1595866552
Hithadhoo,-0.6,73.08,82.94,74,100,11.25,MV,1595866553
Batemans Bay,-35.72,150.18,55.0,100,100,7.0,AU,1595866554
New Norfolk,-42.78,147.06,42.01,90,94,2.21,AU,1595866346
Rikitea,-23.12,-134.97,71.13,74,100,15.5,PF,1595866556
Souillac,-20.52,57.52,69.8,83,75,3.36,MU,1595866557
Punta Arenas,-53.15,-70.92,41.0,74,40,16.11,CL,1595866558
Kaitangata,-46.28,169.85,43.0,70,77,1.01,NZ,1595866352
Rawson,-43.3,-65.1,44.87,56,7,21.18,AR,1595866561
Atuona,-9.8,-139.03,79.29,72,3,25.43,PF,1595866325
Bethel,41.37,-73.41,89.01,52,1,5.82,US,1595866354
Mahébourg,-20.41,57.7,69.8,83,75,3.36,MU,1595866564
Airai,-8.93,125.41,53.24,85,88,2.59,TL,1595866565
Ahipara,-35.17,173.17,51.49,82,86,7.56,NZ,1595866566
Celendín,-6.87,-78.15,66.2,48,6,2.24,PE,1595866568
Ushuaia,-54.8,-68.3,32.0,89,90,28.86,AR,1595866569
Bereda,43.27,-7.54,86.0,50,0,13.0,ES,1595866344
Busselton,-33.65,115.33,54.0,98,26,8.37,AU,1595866571
Saint Paul Harbor,57.79,-152.41,55.4,76,90,4.7,US,1595866330
Mokhsogollokh,61.47,128.92,62.42,99,100,2.73,RU,1595866325
Ust'-Ordynskiy,52.8,104.75,60.8,100,20,2.24,RU,1595866580
Fare,-16.7,-151.02,78.84,81,99,13.71,PF,1595866583
Bengkulu,-3.8,102.27,76.51,83,50,8.86,ID,1595866584
Pangnirtung,66.15,-65.71,51.8,81,75,2.24,CA,1595866589
Vendôme,47.8,1.07,89.6,22,0,20.8,FR,1595866590
Orán,-23.13,-64.33,82.51,15,0,3.44,AR,1595866529
Bilma,18.69,12.92,104.81,20,51,15.08,NE,1595866593
Kurāra,25.98,79.98,95.58,44,37,4.83,IN,1595866594
Tabas,33.6,56.92,104.0,11,1,4.7,IR,1595866374
Ginir,7.13,40.7,62.46,88,84,8.32,ET,1595866596
Vardø,70.37,31.11,59.0,77,17,17.22,NO,1595866598
Cape Town,-33.93,18.42,63.0,67,0,8.05,ZA,1595866443
Vaini,-21.2,-175.2,69.8,77,75,10.29,TO,1595866600
Hermanus,-34.42,19.23,57.0,77,0,1.99,ZA,1595866601
Hilo,19.73,-155.09,75.2,88,90,3.36,US,1595866602
Kapaa,22.08,-159.32,78.8,88,90,5.82,US,1595866338
Bambous Virieux,-20.34,57.76,70.0,83,75,3.36,MU,1595866605
Castro,-24.79,-50.01,73.06,49,100,9.31,BR,1595866606
Norman Wells,65.28,-126.83,59.0,77,20,5.08,CA,1595866383
Mataura,-46.19,168.86,39.0,83,95,3.0,NZ,1595866318
Saint-Philippe,-21.36,55.77,71.6,73,100,3.36,RE,1595866335
Vila Velha,-20.33,-40.29,78.8,61,75,11.41,BR,1595866553
Praia,14.92,-23.51,84.2,54,40,21.92,CV,1595866505
Hualmay,-11.1,-77.61,67.01,61,83,11.1,PE,1595866613
Adrar,20.5,-10.07,104.94,17,16,4.52,MR,1595866618
Saldanha,-33.01,17.94,62.6,48,0,6.93,ZA,1595866619
Zyryanka,65.75,150.85,60.85,81,67,2.95,RU,1595866385
Longyearbyen,78.22,15.64,69.8,43,0,5.82,SJ,1595866541
Uyuni,-20.46,-66.83,46.09,32,0,11.86,BO,1595866622
Yangi Marg`ilon,40.43,71.72,84.2,42,18,4.7,UZ,1595866624
Cidreira,-30.18,-50.21,66.87,78,96,2.06,BR,1595866625
Bowen,-20.02,148.23,59.0,93,0,2.24,AU,1595866626
Narsaq,60.92,-46.05,53.6,66,75,4.7,GL,1595866627
Saskylakh,71.92,114.08,40.82,83,100,7.36,RU,1595866338
Sosnogorsk,63.6,53.88,71.13,55,69,4.05,RU,1595866629
Touros,-5.2,-35.46,78.8,83,75,13.87,BR,1595866630
San Patricio,19.22,-104.7,86.0,74,75,4.76,MX,1595866632
Chui,-33.7,-53.46,57.4,71,0,7.14,UY,1595866334
Båtsfjord,70.63,29.72,69.8,49,40,13.87,NO,1595866634
El Campo,29.2,-96.27,84.99,78,90,5.82,US,1595866635
Cortez,37.35,-108.59,73.4,56,1,3.36,US,1595866636
Whitehorse,60.72,-135.05,50.0,66,75,8.05,CA,1595866528
Uruaçu,-14.52,-49.14,88.52,28,0,6.98,BR,1595866527
Grindavik,63.84,-22.43,50.0,71,20,21.92,IS,1595866640
Saint George,37.1,-113.58,88.0,23,1,2.37,US,1595866477
Constitución,-35.33,-72.42,54.73,58,15,11.88,CL,1595866642
Paamiut,61.99,-49.67,46.22,89,67,5.5,GL,1595866643
Sobolevo,54.43,31.9,69.21,87,94,5.06,RU,1595866644
Jamestown,42.1,-79.24,82.99,78,90,18.34,US,1595866645
Richards Bay,-28.78,32.04,62.15,74,97,4.16,ZA,1595866647
Yellowknife,62.46,-114.35,66.2,68,75,5.82,CA,1595866648
Roald,62.58,6.13,64.99,77,75,14.99,NO,1595866649
Vilyuysk,63.76,121.62,50.9,69,100,8.21,RU,1595866650
Hobart,-42.88,147.33,45.0,93,90,5.82,AU,1595866651
Nikolskoye,59.7,30.79,75.2,44,44,11.18,RU,1595866652
Seoni Mālwa,22.45,77.47,84.45,68,76,4.68,IN,1595866653
Arraial do Cabo,-22.97,-42.03,80.6,61,20,19.46,BR,1595866655
Hong Kong,22.29,114.16,86.0,74,57,5.99,HK,1595866426
Madison Heights,42.49,-83.11,87.01,66,40,11.41,US,1595866458
Tuktoyaktuk,69.45,-133.04,60.8,82,20,5.82,CA,1595866659
Nanma,36.18,118.16,75.99,86,4,3.04,CN,1595866660
Jiangyou,31.77,104.72,76.77,86,29,1.63,CN,1595866661
Tasiilaq,65.61,-37.64,46.4,75,75,9.17,GL,1595866662
Kadom,54.56,42.47,69.35,77,62,1.88,RU,1595866664
Severo-Kuril'sk,50.68,156.12,51.31,91,53,17.11,RU,1595866665
Canora,51.63,-102.43,69.8,64,1,10.29,CA,1595866666
Arman',59.7,150.17,53.08,86,0,0.36,RU,1595866667
Sherlovaya Gora,50.57,116.25,63.45,89,34,13.47,RU,1595866669
Tingi,-11.3,35.03,56.48,85,22,2.35,TZ,1595866670
Kamenka,51.32,42.77,79.0,38,93,3.0,RU,1595866671
Muriwai Beach,-36.82,174.45,50.0,94,67,1.01,NZ,1595866672
Camacha,33.08,-16.33,75.2,64,20,14.99,PT,1595866673
São Filipe,14.9,-24.5,76.8,74,0,10.89,CV,1595866674
Butaritari,3.07,172.79,82.92,77,95,11.7,KI,1595866675
Szczytno,53.56,20.99,75.2,53,66,5.82,PL,1595866677
Champotón,19.35,-90.72,87.8,66,40,7.83,MX,1595866678
Kavaratti,10.57,72.64,82.53,79,99,12.75,IN,1595866679
Port Elizabeth,-33.92,25.57,55.4,71,0,5.82,ZA,1595866680
Puerto Colombia,10.99,-74.95,87.8,66,40,9.17,CO,1595866681
Mezen',65.85,44.24,65.46,77,7,6.78,RU,1595866682
Shenjiamen,29.96,122.3,78.75,93,100,17.49,CN,1595866683
Cherskiy,68.75,161.3,38.61,76,51,11.79,RU,1595866685
Port Lincoln,-34.73,135.87,50.81,79,14,6.53,AU,1595866686
Redlands,34.06,-117.18,78.01,41,5,3.04,US,1595866599
Puerto Ayora,-0.74,-90.35,71.6,78,75,16.11,EC,1595866688
Hasaki,35.73,140.83,78.01,100,75,3.36,JP,1595866690
Upernavik,72.79,-56.15,44.4,77,3,6.38,GL,1595866691
Leningradskiy,69.38,178.42,34.2,90,72,13.58,RU,1595866693
George Town,5.41,100.34,78.8,94,40,3.36,MY,1595866580
Isabela,6.71,121.97,77.0,94,75,2.24,PH,1595866695
Kaeo,-35.1,173.78,55.0,3,66,3.0,NZ,1595866696
Faanui,-16.48,-151.75,78.44,82,100,15.01,PF,1595866698
Mar del Plata,-38.0,-57.56,48.2,57,40,19.46,AR,1595866699
Fortuna,40.6,-124.16,62.01,87,9,2.93,US,1595866700
Oistins,13.07,-59.53,89.6,62,40,21.92,BB,1595866701
Lamar,33.67,-95.58,82.99,74,90,6.93,US,1595866702
Zubtsov,56.18,34.59,73.42,76,2,1.59,RU,1595866703
Rocha,-34.48,-54.33,58.62,65,2,8.99,UY,1595866704
Half Moon Bay,37.46,-122.43,64.99,82,90,3.36,US,1595866706
Bandarbeyla,9.49,50.81,79.07,76,57,27.78,SO,1595866707
Verāval,20.9,70.37,84.31,79,6,13.76,IN,1595866708
Codrington,-38.27,141.97,46.35,87,0,5.1,AU,1595866710
Comodoro Rivadavia,-45.87,-67.5,44.6,48,20,12.75,AR,1595866711
Oerlinghausen,51.95,8.66,73.99,63,100,4.0,DE,1595866712
Bluff,-46.6,168.33,39.0,83,100,3.0,NZ,1595866713
Namatanai,-3.67,152.43,79.47,79,93,4.47,PG,1595866714
East London,-33.02,27.91,60.64,63,7,10.94,ZA,1595866675
Imbituba,-28.24,-48.67,68.0,72,75,1.12,BR,1595866717
Shimoda,34.67,138.95,70.0,94,100,1.01,JP,1595866719
Ilulissat,69.22,-51.1,44.6,81,75,9.17,GL,1595866720
Poya,-21.35,165.15,68.79,85,95,6.69,NC,1595866721
São João da Barra,-21.64,-41.05,80.6,51,20,16.11,BR,1595866722
Bay-Khaak,51.17,94.5,58.14,57,51,3.24,RU,1595866723
Miandrivazo,-19.52,45.47,73.94,32,62,3.36,MG,1595866724
Dikson,73.51,80.55,38.46,89,74,15.1,RU,1595866725
Sasina,44.8,16.74,86.0,37,20,2.24,BA,1595866727
Barrow,71.29,-156.79,39.2,86,90,20.8,US,1595866728
Straumen,63.87,11.3,69.8,56,20,10.29,NO,1595866729
Pushchino,54.83,37.63,66.2,72,40,6.71,RU,1595866730
Porto-Novo,6.5,2.6,80.6,78,20,16.11,BJ,1595866731
Carnarvon,-24.87,113.63,60.8,87,0,8.05,AU,1595866732
Cooma,-36.23,149.13,42.8,100,90,20.8,AU,1595866733
Ambilobe,-13.2,49.05,72.61,76,91,1.99,MG,1595866735
Luena,-11.78,19.92,73.11,29,0,4.52,AO,1595866736
Nabire,-3.37,135.48,75.65,91,100,5.75,ID,1595866737
Obo,5.4,26.49,75.34,90,72,1.54,CF,1595866738
Sistranda,63.73,8.83,68.0,56,20,11.41,NO,1595866739
Acapulco de Juárez,16.86,-99.89,86.0,70,40,4.7,MX,1595866504
Leticia,-4.22,-69.94,84.2,74,40,5.82,CO,1595866741
Faya,18.39,42.45,68.0,68,75,5.82,SA,1595866743
Sembakung,3.82,117.25,75.67,92,86,1.79,ID,1595866744
Agirish,61.92,63.02,58.12,61,41,4.79,RU,1595866745
Río Gallegos,-51.62,-69.22,37.4,74,40,28.86,AR,1595866580
Tura,25.52,90.22,75.9,96,100,5.95,IN,1595866747
Auki,-8.77,160.7,77.52,87,40,4.29,SB,1595866748
Dunedin,-45.87,170.5,43.0,70,70,1.01,NZ,1595866691
Thompson,55.74,-97.86,60.8,93,90,9.17,CA,1595866750
Cabo San Lucas,22.89,-109.91,86.0,54,40,18.34,MX,1595866476
Laas,46.62,10.7,78.01,64,40,11.41,IT,1595866525
Sinnamary,5.38,-52.95,87.55,58,25,3.47,GF,1595866754
Lüderitz,-26.65,15.16,78.8,26,0,11.41,NA,1595866755
Loandjili,-4.76,11.86,80.6,65,20,9.17,CG,1595866756
Parfen'yevo,58.48,43.41,66.97,84,74,2.24,RU,1595866757
Provideniya,64.38,-173.3,50.99,87,52,7.29,RU,1595866758
Pirapora,-17.34,-44.94,84.52,29,0,9.66,BR,1595866760
Honningsvåg,70.98,25.97,60.8,67,2,2.24,NO,1595866761
Jalu,29.03,21.55,100.26,16,0,11.72,LY,1595866762
São Gabriel da Cachoeira,-0.13,-67.09,82.4,78,40,6.93,BR,1595866764
Peruíbe,-24.32,-47.0,75.2,66,73,4.76,BR,1595866767
Marzuq,14.4,46.47,79.84,57,100,9.86,YE,1595866769
High Level,58.52,-117.14,69.8,68,20,5.82,CA,1595866535
Marsabit,2.33,37.99,76.33,42,62,14.14,KE,1595866771
Geraldton,-28.77,114.6,57.2,93,40,4.7,AU,1595866773
Clyde River,70.47,-68.59,42.8,100,90,13.87,CA,1595866774
West Bay,19.37,-81.42,91.4,66,20,13.87,KY,1595866631
Taltal,-25.4,-70.48,64.31,52,21,3.98,CL,1595866776
Isangel,-19.55,169.27,71.6,83,30,4.7,VU,1595866777
Raahe,64.68,24.48,73.4,49,94,4.7,FI,1595866779
Mossamedes,-15.2,12.15,72.45,62,0,12.44,AO,1595866781
Sibu,2.3,111.82,78.8,88,40,1.21,MY,1595866782
Navahrudak,53.6,25.83,75.56,71,41,2.62,BY,1595866783
Atambua,-9.11,124.89,66.34,85,64,6.62,ID,1595866784
The Valley,18.22,-63.06,87.8,62,40,17.22,AI,1595866686
Yuxia,34.06,108.63,81.0,94,23,6.71,CN,1595866787
Klyuchi,52.27,79.17,65.91,59,60,5.19,RU,1595866788
Beringovskiy,63.05,179.32,60.35,70,3,6.73,RU,1595866790
Lebu,-37.62,-73.65,48.69,69,7,11.34,CL,1595866791
Alès,44.13,4.08,86.0,42,0,13.0,FR,1595866792
Wilmington,34.23,-77.94,93.99,59,1,10.29,US,1595866603
Miraflores,19.22,-98.81,68.0,52,75,3.6,MX,1595866796
Tocopilla,-22.09,-70.2,66.09,44,15,3.02,CL,1595866797
Saurimo,-9.66,20.39,80.6,22,5,5.03,AO,1595866798
San Quintín,30.48,-115.95,69.53,77,97,7.49,MX,1595866799
Vilhena,-12.74,-60.15,80.6,51,0,11.41,BR,1595866801
Terra Santa,-2.1,-56.49,94.53,37,0,4.99,BR,1595866802
Mumford,5.26,-0.76,76.62,82,69,14.56,GH,1595866803
Atikokan,48.76,-91.62,69.44,65,26,10.51,CA,1595866804
Bodden Town,19.28,-81.25,91.4,66,20,13.87,KY,1595866805
Nuuk,64.18,-51.72,50.0,81,75,5.82,GL,1595866807
Necochea,-38.55,-58.74,46.99,71,57,17.0,AR,1595866808
Katsuura,35.13,140.3,80.6,94,75,11.41,JP,1595866809
Lavrentiya,65.58,-171.0,53.89,82,72,9.13,RU,1595866811
Kumul,42.8,93.45,90.54,12,62,3.78,CN,1595866812
Sørkjosen,69.8,20.93,73.4,43,63,11.41,NO,1595866813
Jilib,0.49,42.79,77.9,74,44,10.98,SO,1595866814
Havelock,34.88,-76.9,91.4,59,5,8.05,US,1595866815
Haines Junction,60.75,-137.51,47.14,83,100,3.76,CA,1595866817
Bilibino,68.05,166.44,50.99,68,100,0.51,RU,1595866772
Vostok,46.49,135.88,59.85,98,0,3.38,RU,1595866819
Las Choapas,17.93,-94.08,86.0,70,20,5.82,MX,1595866820
Tuatapere,-46.13,167.68,39.0,83,99,3.0,NZ,1595866822
Dzaoudzi,-12.79,45.27,69.8,88,75,23.04,YT,1595866823
Tiruchchendur,8.48,78.12,87.42,59,92,8.32,IN,1595866824
Mwinilunga,-11.74,24.43,70.34,28,0,5.44,ZM,1595866825
Itarema,-2.92,-39.92,86.99,49,15,16.62,BR,1595866827
Bintulu,3.17,113.03,78.8,94,40,3.36,MY,1595866828
Micheweni,-4.97,39.83,76.55,77,2,16.73,TZ,1595866829
Flin Flon,54.77,-101.86,71.6,49,20,12.75,CA,1595866830
Belmopan,17.25,-88.77,89.01,66,85,10.0,BZ,1595866832
Kirando,-7.42,30.6,73.35,55,0,6.31,TZ,1595866833
Ekhabi,53.51,142.97,53.01,93,11,6.78,RU,1595866834
Saryozek,44.36,77.98,70.09,39,13,6.67,KZ,1595866835
Hobyo,5.35,48.53,80.15,74,16,25.95,SO,1595866837
Sørland,67.67,12.69,57.2,93,75,8.05,NO,1595866779
Eskil,38.4,33.41,91.53,18,0,10.42,TR,1595866840
Sisimiut,66.94,-53.67,44.82,93,100,7.74,GL,1595866841
Fairbanks,64.84,-147.72,57.2,87,90,6.93,US,1595866783
Esperance,-33.87,121.9,59.0,93,90,13.87,AU,1595866843
Esim,4.87,-2.24,78.48,73,62,12.75,GH,1595866844
Formosa,-26.18,-58.18,73.4,64,77,3.36,AR,1595866784
Mt. Pleasant,32.79,-79.86,93.0,59,1,4.7,US,1595866847
Salalah,17.02,54.09,80.6,94,90,8.05,OM,1595866779
Westport,41.14,-73.36,91.99,46,1,13.87,US,1595866683
Port Montt,-41.47,-72.94,46.4,75,75,4.7,CL,1595866574
Alta Floresta,-9.88,-56.09,91.4,31,0,10.29,BR,1595866857
Poum,-20.23,164.02,73.51,81,99,20.04,NC,1595866797
Ribeira Grande,38.52,-28.7,80.6,69,20,12.75,PT,1595866813
Chernyshevskiy,63.01,112.47,50.04,65,99,8.01,RU,1595866863
Opuwo,-18.06,13.84,77.34,18,0,8.88,NA,1595866866
Chokurdakh,70.63,147.92,42.01,72,100,2.62,RU,1595866867
Buta,2.79,24.73,81.43,67,96,1.68,CD,1595866870
New Port Richey,28.24,-82.72,90.0,64,87,1.99,US,1595866875
Gongzhuling,43.5,124.82,69.17,91,99,3.89,CN,1595866879
Itumbiara,-18.42,-49.22,84.63,36,2,8.7,BR,1595866882
Ulladulla,-35.35,150.47,57.0,100,90,17.22,AU,1595866886
Port Alfred,-33.59,26.89,58.32,65,0,12.77,ZA,1595866777
Poncitlán,20.37,-102.92,68.0,72,90,3.36,MX,1595866889
Homer,59.64,-151.55,55.99,81,1,5.93,US,1595866890
Sitka,57.05,-135.33,53.6,93,90,5.82,US,1595866892
João Pinheiro,-17.74,-46.17,78.42,43,74,7.23,BR,1595866895
Dolores,-36.31,-57.68,54.23,53,94,14.99,AR,1595866897
Naze,28.37,129.48,80.6,100,20,3.36,JP,1595866899
Walvis Bay,-22.96,14.51,78.8,26,0,13.87,NA,1595866901
Slave Lake,55.28,-114.77,64.4,77,1,4.7,CA,1595866904
Esqueda,30.72,-109.58,78.04,63,22,5.41,MX,1595866905
Tokur,53.13,132.9,61.36,94,62,1.7,RU,1595866910
Brae,60.4,-1.35,53.6,93,75,10.29,GB,1595866911
Bosaso,11.28,49.18,89.47,52,86,4.97,SO,1595866912
Kirakira,-10.45,161.92,79.75,83,42,12.06,SB,1595866799
Yoichi,43.2,140.77,60.01,95,78,3.0,JP,1595866916
Kahului,20.89,-156.47,78.8,78,40,12.75,US,1595866917
North Battleford,52.78,-108.28,64.4,72,1,4.7,CA,1595866918
Panubigan,7.43,123.35,77.05,90,100,3.42,PH,1595866920
Colomi,-17.35,-65.87,71.6,17,0,2.66,BO,1595866921
Mocuba,-16.84,36.99,65.62,88,44,4.27,MZ,1595866922
Kavieng,-2.57,150.8,81.36,76,49,0.87,PG,1595866917
Ilhabela,-23.78,-45.36,77.31,59,39,4.68,BR,1595866915
Kruisfontein,-34.0,24.73,57.99,67,0,1.01,ZA,1595866926
Oranjemund,-28.55,16.43,70.48,32,0,10.8,NA,1595866927
Neuquén,-38.95,-68.06,46.4,39,0,13.87,AR,1595866768
Tiksi,71.69,128.87,40.41,84,99,3.56,RU,1595866908
Lixouri,38.2,20.43,87.8,45,0,17.22,GR,1595866931
Qaanaaq,77.48,-69.36,45.61,56,63,0.81,GL,1595866915
Djebeniana,35.03,10.91,89.6,52,0,10.29,TN,1595866934
Nokaneng,-19.67,22.27,68.09,23,0,7.45,BW,1595866935
Yarim,14.3,44.38,59.58,85,99,0.76,YE,1595866936
Kalianget,-7.05,113.93,79.21,78,71,11.34,ID,1595866937
Mitsamiouli,-11.38,43.28,76.06,75,100,12.75,KM,1595866939
Alugan,12.22,125.48,78.84,89,100,5.21,PH,1595866941
Sungai Penuh,-2.08,101.38,62.67,90,92,2.86,ID,1595866942
San Jose,37.34,-121.89,69.01,72,40,2.17,US,1595866783
Ouallam,14.32,2.09,95.0,41,41,9.31,NE,1595866945
Qaqortoq,60.72,-46.03,53.6,66,75,4.7,GL,1595866946
Nanortalik,60.14,-45.24,47.01,82,100,7.23,GL,1595866948
Vao,-22.67,167.48,72.01,77,57,20.4,NC,1595866928
Egvekinot,66.32,-179.17,54.09,85,46,7.83,RU,1595866779
Sovetskiy,61.36,63.58,62.24,52,26,4.94,RU,1595866955
Saýat,38.78,63.88,91.4,21,0,4.7,TM,1595866958
Nelson Bay,-32.72,152.15,55.0,93,75,23.04,AU,1595866959
Nishihara,26.18,127.76,82.4,78,20,5.82,JP,1595866962
Lompoc,34.64,-120.46,57.99,93,90,4.7,US,1595866716
Sept-Îles,50.2,-66.38,66.2,82,75,5.82,CA,1595866965
Vícar,36.83,-2.64,86.0,70,21,12.75,ES,1595866966
Baykit,61.67,96.37,55.31,82,100,3.33,RU,1595866967
Khatanga,71.97,102.5,42.82,76,20,5.41,RU,1595866784
College,64.86,-147.8,57.2,82,90,4.7,US,1595866807
Bukachacha,52.98,116.92,64.99,78,98,2.89,RU,1595866971
Anadyr,64.75,177.48,60.8,67,0,4.47,RU,1595866972
Aberdeen,57.14,-2.1,57.2,93,100,9.17,GB,1595866973
Biloela,-24.42,150.5,49.06,61,81,2.42,AU,1595866975
Maceió,-9.67,-35.74,80.6,65,75,19.46,BR,1595866756
Dingle,11.0,122.67,77.76,88,100,1.97,PH,1595866977
Muravlenko,63.79,74.52,53.62,59,75,13.2,RU,1595866978
North Vernon,39.01,-85.62,87.01,70,40,10.29,US,1595866979
Bharatpur,27.22,77.48,95.45,45,64,4.76,IN,1595866981
Puerto Escondido,15.85,-97.07,84.2,79,90,5.82,MX,1595866824
Kiryat Gat,31.61,34.76,86.0,62,20,8.05,IL,1595866684
Borovskoy,53.8,64.15,59.95,72,8,7.36,KZ,1595866984
Woodland,38.68,-121.77,75.99,63,20,5.82,US,1595866985
San Felipe,10.34,-68.74,85.82,64,69,0.49,VE,1595866987
Road Town,18.42,-64.62,91.4,59,20,9.17,VG,1595866794
Okato,-39.2,173.88,44.01,67,69,8.01,NZ,1595866989
Chiang Rai,19.91,99.83,73.4,100,40,3.36,TH,1595866990
Arkhipo-Osipovka,44.37,38.52,76.98,73,0,2.57,RU,1595866991
Kingston,18.0,-76.79,89.6,66,20,13.87,JM,1595866786
Fonte Boa,-2.5,-66.27,88.95,55,0,2.93,BR,1595866997
Mayo,38.89,-76.51,91.99,52,1,6.93,US,1595866960
Beira,-19.84,34.84,69.01,88,75,18.34,MZ,1595866915
Srednekolymsk,67.45,153.68,51.55,74,43,6.62,RU,1595867004
Santa Vitória do Palmar,-33.52,-53.37,57.13,71,3,6.67,BR,1595867007
Yārāda,17.65,83.27,84.2,83,40,5.82,IN,1595867008
Talnakh,69.49,88.4,51.8,57,99,8.95,RU,1595867009
Mānvi,15.98,77.05,82.8,69,100,7.0,IN,1595867011
Santa Marta,11.24,-74.2,86.0,74,75,5.82,CO,1595866774
Mpanda,-6.37,31.04,76.14,33,63,2.19,TZ,1595867016
Chadan,51.28,91.58,62.02,65,100,4.61,RU,1595867018
San Juan,-31.54,-68.54,55.4,38,0,20.76,AR,1595867019
Ancud,-41.87,-73.82,50.0,75,75,5.82,CL,1595866922
Assaí,-23.37,-50.84,78.8,50,100,6.93,BR,1595867021
Sennar,13.57,33.57,84.7,57,92,6.4,SD,1595867022
Kroya,-7.63,109.25,74.82,85,79,7.65,ID,1595867024
Antofagasta,-23.65,-70.4,59.0,62,20,8.05,CL,1595866868
Werl,51.55,7.92,77.0,71,83,9.57,DE,1595867026
Abu Dhabi,24.47,54.37,98.6,63,1,9.17,AE,1595867027
Uyemskiy,64.47,40.85,71.6,64,20,6.71,RU,1595867028
Fes,34.04,-5.0,100.4,27,40,9.17,MA,1595867030
Moba,33.23,105.02,61.65,92,99,3.71,CN,1595867031
Aldan,58.6,125.39,62.29,90,51,8.79,RU,1595867032
Tiarei,-17.53,-149.33,75.2,78,40,4.7,PF,1595867033
Athens,37.98,23.72,91.99,47,12,5.01,GR,1595867035
Višegrad,43.78,19.3,71.6,60,20,6.93,BA,1595867036
Hamilton,39.18,-84.53,89.01,66,40,8.05,US,1595866759
Kurumkan,54.3,110.3,61.39,83,98,2.59,RU,1595867038
Coalinga,36.14,-120.36,80.01,42,0,5.99,US,1595867039
Plácido de Castro,-10.34,-67.19,93.49,35,0,0.92,BR,1595867040
East Stroudsburg,41.0,-75.18,91.0,58,24,1.01,US,1595867041
Ulaangom,49.98,92.07,70.11,36,77,5.86,MN,1595866806
Ternate,0.8,127.4,80.06,80,53,5.17,ID,1595867044
Nāgothana,18.53,73.13,87.01,94,40,3.36,IN,1595866866
Olafsvik,64.89,-23.71,49.12,77,4,16.24,IS,1595867047
Kloulklubed,7.04,134.26,77.0,94,75,4.7,PW,1595867049
City of Catbalogan,11.85,124.92,74.48,94,87,2.64,PH,1595867050
Cap Malheureux,-19.98,57.61,70.0,77,70,1.99,MU,1595867053
Karratha,-20.74,116.85,66.7,42,0,4.76,AU,1595867054
Okhotsk,59.38,143.3,56.12,89,100,3.13,RU,1595866831
Bayjī,34.93,43.49,108.73,8,0,5.99,IQ,1595867061
Talaya,61.38,152.75,63.86,57,69,3.56,RU,1595867062
Kangaatsiaq,68.31,-53.46,43.81,90,100,11.12,GL,1595866921
Coquimbo,-29.95,-71.34,60.8,63,14,11.41,CL,1595867066
Miles City,46.41,-105.84,78.8,31,1,6.93,US,1595866955
Husavik,66.04,-17.34,51.8,62,77,17.22,IS,1595867070
Pichayevo,53.24,42.2,71.02,61,36,3.94,RU,1595867071
Umm Kaddadah,13.6,26.69,95.79,28,2,5.95,SD,1595867073
Fort Nelson,58.81,-122.7,62.6,67,75,9.17,CA,1595867074
Athabasca,54.72,-113.29,71.01,66,0,3.13,CA,1595866824
Verkhoyansk,67.54,133.38,50.45,80,62,6.82,RU,1595867027
Pevek,69.7,170.31,34.0,90,62,11.83,RU,1595867081
Wanaka,-44.7,169.15,32.0,83,98,2.26,NZ,1595867082
Viedma,-40.81,-63.0,46.99,63,76,5.99,AR,1595866948
Peace River,56.25,-117.29,64.4,77,5,4.7,CA,1595866918
Ol'ga,43.74,135.29,60.39,93,16,5.1,RU,1595867087
Saint Anthony,45.02,-93.22,80.01,47,1,12.75,US,1595867088
Pemangkat,1.17,108.97,78.12,86,100,4.61,ID,1595867090
Alofi,-19.06,-169.92,71.6,88,75,10.29,NU,1595867092
Kuliyapitiya,7.47,80.04,82.4,83,20,5.82,LK,1595867093
Piancó,-7.2,-37.93,86.76,38,94,13.73,BR,1595867095
Hīt,33.64,42.83,109.53,8,1,8.77,IQ,1595866936
Perevoz,55.6,44.54,68.65,67,15,3.49,RU,1595867097
Kidal,18.44,1.41,97.97,27,92,8.63,ML,1595867098
Gilbués,-9.83,-45.34,88.99,27,0,12.75,BR,1595867100
Kletskaya,49.31,43.06,84.99,26,88,5.99,RU,1595866822
Khandyga,62.67,135.6,61.27,66,100,4.18,RU,1595867102
Lata,40.16,-8.33,82.99,66,0,5.01,PT,1595867104
Puquio,-14.7,-74.13,61.57,21,0,3.2,PE,1595867105
Malinovoye Ozero,51.68,79.78,68.02,48,74,2.73,RU,1595866867
Palmer,42.16,-72.33,91.0,51,20,5.82,US,1595866831
Roebourne,-20.78,117.13,67.26,38,0,5.75,AU,1595867109
Wuxi,31.57,120.29,82.99,86,100,2.26,CN,1595867110
Xinzhi,36.5,111.7,75.83,70,0,6.42,CN,1595867112
Sumbe,-11.21,13.84,73.56,73,0,7.61,AO,1595867113
Lokosovo,61.13,74.82,52.07,67,45,6.76,RU,1595867114
Sola,-13.88,167.55,80.28,83,65,23.13,VU,1595867119
Korla,41.76,86.15,86.31,28,73,24.85,CN,1595866916
Mazatlán,23.22,-106.42,77.0,88,90,5.82,MX,1595866933
Vanimo,-2.67,141.3,77.38,86,51,3.33,PG,1595867122
Palmerston,-12.49,130.98,69.8,68,81,4.7,AU,1595867126
Gemeente Wageningen,51.97,5.67,73.99,60,75,12.75,NL,1595866852
Cabedelo,-6.98,-34.83,82.4,65,75,18.34,BR,1595867129
Gambēla,8.25,34.58,73.04,91,100,1.97,ET,1595867133
Kieta,-6.22,155.63,78.46,79,98,3.83,PG,1595866937
Diapaga,12.07,1.79,87.28,60,77,4.23,BF,1595867136
Doha,25.29,51.53,98.01,56,0,8.05,QA,1595867137
Linares,-35.85,-71.6,50.97,71,1,9.08,CL,1595867139
Bafoulabé,13.81,-10.83,83.8,77,58,2.57,ML,1595867140
Soyo,-6.13,12.37,74.98,74,66,9.8,AO,1595867142
Neiafu,-18.65,-173.98,73.4,88,40,5.82,TO,1595867144
Chapel Hill,35.91,-79.06,93.99,67,0,3.69,US,1595867148
Yazman,29.12,71.74,104.85,27,0,12.91,PK,1595867149
Cabatuan,10.88,122.49,77.61,87,100,2.57,PH,1595867150
Aguadas,5.61,-75.46,69.8,60,40,2.24,CO,1595867153
Aleppo Governorate,36.25,37.5,103.35,13,49,11.18,SY,1595867154
Mehamn,71.04,27.85,73.4,46,6,10.29,NO,1595867156
Şabyā,17.15,42.63,86.0,70,40,5.82,SA,1595867157
Vestmannaeyjar,63.44,-20.27,57.2,62,3,19.46,IS,1595867159
Ardakān,32.31,54.02,100.4,12,75,6.93,IR,1595867160
Chilca,-12.52,-76.74,60.8,77,90,6.93,PE,1595867163
Den Helder,52.96,4.76,72.0,68,90,14.99,NL,1595866876
Lobatse,-25.22,25.67,55.4,32,0,5.82,BW,1595867126
Aykhal,66.0,111.5,41.0,93,90,4.47,RU,1595867167
Hofn,64.25,-15.21,59.0,44,40,18.34,IS,1595867168
Bandar-e Lengeh,26.56,54.88,95.0,71,0,6.93,IR,1595867169
Ponta do Sol,32.67,-17.1,75.0,65,0,4.88,PT,1595866925
Torbay,47.67,-52.73,62.01,93,90,12.75,CA,1595867171
Camocim,-2.9,-40.84,89.11,44,0,10.2,BR,1595867173
Farnes,61.32,7.8,60.8,59,75,19.46,NO,1595867174
Serra Talhada,-7.99,-38.3,84.42,36,99,11.05,BR,1595867175
Chimoré,-16.98,-65.13,87.01,38,0,5.26,BO,1595867176
Majene,-3.54,118.97,77.92,85,40,14.18,ID,1595867178
Kashgar,39.45,75.98,90.0,64,72,1.01,CN,1595867179
Tilichiki,60.47,166.1,50.41,68,0,3.4,RU,1595867180
Pokhara,28.23,83.98,72.91,84,89,1.7,NP,1595867181
Waingapu,-9.66,120.26,72.0,81,91,10.76,ID,1595867182
Altay,47.87,88.12,64.49,53,100,4.09,CN,1595867184
Havre-St-Pierre,50.23,-63.6,66.2,77,90,8.05,CA,1595867185
Nhulunbuy,-12.23,136.77,71.6,64,83,9.17,AU,1595867117
Pavino,59.11,46.14,66.27,84,100,1.72,RU,1595867187
Jidong,45.22,131.08,63.0,91,0,1.83,CN,1595867188
Kulhudhuffushi,6.62,73.07,82.06,77,53,10.04,MV,1595867189
Dzhebariki-Khaya,62.22,135.8,61.45,69,100,2.37,RU,1595867191
Scarborough,54.28,-0.4,64.99,89,100,10.0,GB,1595867069
Bundaberg,-24.85,152.35,60.01,82,100,5.82,AU,1595867193
Pisco,-13.7,-76.22,62.01,87,90,3.36,PE,1595867195
Zhezkazgan,47.8,67.71,77.65,25,0,8.32,KZ,1595867196
Usinsk,65.99,57.53,64.8,59,16,9.33,RU,1595867197
Andenes,69.31,16.12,73.4,43,0,18.34,NO,1595867198
Angoche,-16.23,39.91,72.95,74,50,10.67,MZ,1595867199
Dudinka,69.41,86.18,51.8,57,99,8.95,RU,1595867200
Baijiantan,45.63,85.18,74.61,46,100,12.91,CN,1595867202
Tessalit,20.2,1.01,97.0,26,92,6.31,ML,1595867203
Senneterre,48.38,-77.23,84.2,62,75,5.82,CA,1595867204
Kholm,59.27,32.85,74.5,56,15,2.82,RU,1595867205
Pangkalanbuun,-2.68,111.62,74.86,92,77,2.44,ID,1595867194
Tonantins,-2.87,-67.8,88.38,56,24,3.51,BR,1595867209
Sabha,27.04,14.43,99.88,11,0,13.56,LY,1595867210
Portland,45.52,-122.68,78.01,53,1,3.36,US,1595866926
Boende,-0.22,20.87,81.39,63,86,1.34,CD,1595867212
Makakilo City,21.35,-158.09,80.6,83,75,6.93,US,1595867214
Chumikan,54.72,135.31,55.74,88,100,1.63,RU,1595867215
Kapoeta,4.77,33.59,77.58,70,84,4.76,SS,1595867216
Padang,-0.95,100.35,78.19,78,65,4.45,ID,1595866927
Jablah,35.36,35.93,86.0,70,75,5.82,SY,1595867219
Umarkot,25.36,69.74,96.12,49,66,17.58,PK,1595867220
Plettenberg Bay,-34.05,23.37,57.43,73,0,9.24,ZA,1595867221
Lamu,-2.27,40.9,76.84,80,18,20.11,KE,1595867224
Tairua,-37.02,175.85,54.0,84,75,1.99,NZ,1595867230
Solton,52.84,86.48,58.24,87,0,2.48,RU,1595867233
Raudeberg,61.99,5.14,64.99,82,75,10.29,NO,1595867234
Muroto-misakicho,33.28,134.15,80.17,86,100,8.19,JP,1595867236
Najrān,17.49,44.13,89.6,35,75,10.29,SA,1595867238
Grand Gaube,-20.01,57.66,70.0,77,69,1.99,MU,1595867239
Araouane,18.9,-3.53,104.92,21,67,9.95,ML,1595867240
Tāybād,34.74,60.78,86.43,17,0,14.65,IR,1595867241
Rio Verde de Mato Grosso,-18.92,-54.84,89.62,24,65,9.37,BR,1595867246
Guerrero Negro,27.98,-114.06,72.99,69,5,14.52,MX,1595867247
Amazar,53.86,120.88,67.01,93,72,4.14,RU,1595867248
Labuan,5.28,115.24,78.8,100,20,2.24,MY,1595867250
Manokwari,-0.87,134.08,80.13,77,100,8.21,ID,1595867254
Lashio,22.93,97.75,69.4,97,100,1.68,MM,1595867256
Ino,33.55,133.43,77.07,85,100,2.04,JP,1595867257
Pakdasht,35.48,51.68,98.6,12,20,9.17,IR,1595867259
Nemuro,43.32,145.57,56.91,93,82,5.41,JP,1595867261
Vila Franca do Campo,37.72,-25.43,73.4,94,75,8.05,PT,1595867265
Mezhdurechensk,53.69,88.06,57.36,90,1,1.92,RU,1595867042
Nemyriv,48.97,28.84,86.0,42,40,6.71,UA,1595867274
Severnyy-Kospashskiy,59.09,57.8,62.01,53,58,4.99,RU,1595867275
Snyder,32.72,-100.92,82.4,58,1,9.17,US,1595867276
Vung Tau,10.35,107.08,83.86,77,0,10.16,VN,1595867278
Kongolo,-5.38,27.0,85.87,22,0,2.62,CD,1595867281
Narón,43.52,-8.15,75.0,71,17,8.99,ES,1595867282
Pacific Grove,36.62,-121.92,57.99,93,54,1.01,US,1595866992
Ţahţā,26.77,31.5,98.6,19,0,16.11,EG,1595867284
Gizo Government Station,-8.1,156.84,81.12,79,70,6.24,SB,1595867287
Senador José Porfírio,-2.59,-51.95,89.35,45,0,3.11,BR,1595867289
Shīeli,44.17,66.75,84.4,18,75,11.34,KZ,1595867291
Rzhishchëv,49.97,31.05,82.4,50,90,6.71,UA,1595867292
Preobrazheniye,42.9,133.91,62.94,87,35,10.04,RU,1595867293
Taoudenni,22.68,-3.98,113.11,6,36,7.96,ML,1595867295
Praia da Vitória,38.73,-27.07,80.6,65,20,4.12,PT,1595867296
Los Llanos de Aridane,28.66,-17.92,77.0,65,20,17.22,ES,1595867297
Ostrovnoy,68.05,39.51,63.95,74,9,3.62,RU,1595867298
Banda Aceh,5.56,95.32,79.5,84,100,15.84,ID,1595867299
Mumbwa,-14.98,27.06,65.35,33,0,5.75,ZM,1595867300
Laguna,38.42,-121.42,69.8,59,1,6.93,US,1595867302
Prainha,-1.8,-53.48,91.49,43,0,4.81,BR,1595867303
Chihuahua,28.5,-106.0,75.2,53,75,11.41,MX,1595867304
Port Hardy,50.7,-127.42,59.0,87,90,9.17,CA,1595867305
Khovd,48.01,91.64,69.98,31,98,2.28,MN,1595867306
Pishin,30.58,67.0,84.99,33,81,5.68,PK,1595867308
Cayenne,4.93,-52.33,87.8,62,75,4.7,GF,1595867309
Iquique,-20.22,-70.14,60.8,67,90,5.82,CL,1595867312
Port Shepstone,-30.74,30.45,61.93,67,66,7.7,ZA,1595867315
Tyler,32.35,-95.3,84.2,62,75,4.07,US,1595867317
Makkah al Mukarramah,21.43,39.83,87.6,56,60,17.98,SA,1595867180
Nova Olímpia,-14.8,-57.29,94.5,20,1,7.02,BR,1595867319
Khorramabad,33.49,48.36,93.15,12,47,4.9,IR,1595867320
Belyy Yar,53.6,91.39,60.8,87,64,4.47,RU,1595867321
Omsukchan,62.53,155.8,58.3,81,15,0.31,RU,1595867324
Iqaluit,63.75,-68.51,53.6,76,40,4.7,CA,1595867327
Narrabri,-30.32,149.78,52.0,81,90,6.93,AU,1595867330
Arrondissement de Bressuire,46.92,-0.5,77.0,61,0,17.56,FR,1595867331
Lubumbashi,-11.66,27.48,66.22,33,0,2.89,CD,1595867332
Terekli-Mekteb,44.17,45.87,83.41,38,17,17.13,RU,1595867334
Coos Bay,43.37,-124.22,66.99,100,90,4.7,US,1595867132
Beyneu,45.32,55.2,85.28,16,3,16.22,KZ,1595867336
San Jerónimo,-11.95,-75.28,57.72,44,15,2.19,PE,1595867338
Vāsudevanallūr,9.23,77.42,82.85,62,100,10.67,IN,1595867340
Meulaboh,4.14,96.13,76.39,93,100,12.57,ID,1595867344
Hambantota,6.12,81.12,80.6,88,75,4.7,LK,1595867345
Inuvik,68.35,-133.72,66.2,59,20,4.7,CA,1595867345
Ust-Nera,64.57,143.2,56.84,63,10,6.51,RU,1595867347
Ubari,26.59,12.78,100.13,11,0,13.6,LY,1595867348
Chimoio,-19.12,33.48,66.0,77,75,4.7,MZ,1595867350
Maţāy,28.42,30.78,100.53,13,0,11.45,EG,1595867352
Te Anau,-45.42,167.72,37.47,86,100,0.67,NZ,1595867353
Berlevåg,70.86,29.09,73.4,49,40,13.87,NO,1595867354
Deputatsky,69.3,139.9,45.81,76,100,3.4,RU,1595867355
Puro,12.48,123.38,81.46,81,100,1.03,PH,1595867356
Aranda de Duero,41.67,-3.69,98.82,13,27,11.79,ES,1595867357
North Bend,43.41,-124.22,66.99,100,90,4.7,US,1595867359
Shelburne,44.08,-80.2,82.4,65,75,10.29,CA,1595867282
Ol'khovatka,50.28,39.29,75.09,57,69,7.74,RU,1595867361
Barcelos,41.54,-8.62,82.0,83,20,13.87,PT,1595867363
Gunjur,13.2,-16.73,80.6,82,78,12.12,GM,1595867364
Ābādān,30.34,48.3,111.2,21,0,4.7,IR,1595867365
Smithers,54.78,-127.17,62.6,72,75,2.24,CA,1595867366
Skellefteå,64.75,20.95,66.99,72,100,5.82,SE,1595867367
Channel-Port aux Basques,47.57,-59.14,64.72,82,15,8.5,CA,1595867369
Kovdor,67.57,30.48,68.0,47,29,2.82,RU,1595867370
Biscarrosse,44.39,-1.17,78.8,61,0,11.41,FR,1595867371
Villa Rica,33.73,-84.92,87.01,55,75,5.82,US,1595867357
Beloha,-25.17,45.05,62.46,75,0,7.45,MG,1595867373
Yar-Sale,66.83,70.83,53.31,66,100,6.64,RU,1595867375
Port-Gentil,-0.72,8.78,80.6,74,40,17.02,GA,1595867376
Darbhanga,26.17,85.9,90.97,58,99,1.16,IN,1595867378
Stralsund,54.31,13.08,69.01,69,100,1.99,DE,1595867379
